[
  {
    "name": "MJ Mie dan Rice Bowl",
    "description": "Mie & rice-bowl murah di seberang kampus, cocok makan cepat mahasiswa",
    "latitude": -7.83350,
    "longitude": 110.38290
  },
  {
    "name": "Sel Sel Cheesetea UAD 4",
    "description": "Minuman boba / cheese-tea, cocok nongkrong santai",
    "latitude": -7.83400,
    "longitude": 110.38320
  },
  {
    "name": "Dapoer Mejik",
    "description": "Warung makan & minum, porsi dan harga bersahabat",
    "latitude": -7.83380,
    "longitude": 110.38350
  },
  {
    "name": "Soto Laksa Wan-Wan",
    "description": "Soto/laksa murah & mengenyangkan dekat kampus",
    "latitude": -7.83420,
    "longitude": 110.38410
  },
  {
    "name": "Bakwan Koe Cai",
    "description": "Camilan atau makan ringan — bakwan & gorengan dekat UAD 4",
    "latitude": -7.83450,
    "longitude": 110.38450
  },
  {
    "name": "Boba Oy (Ki Ageng Pemanahan)",
    "description": "Minuman boba/teh & tempat nongkrong santai",
    "latitude": -7.83400,
    "longitude": 110.38380
  },
  {
    "name": "Roti Bakar Bringas",
    "description": "Roti bakar & camilan, cocok untuk makan ringan atau sarapan",
    "latitude": -7.83370,
    "longitude": 110.38300
  },
  {
    "name": "Lotek & Dawet Bu Yuli",
    "description": "Menu tradisional sayur & dawet, alternatif makanan lokal",
    "latitude": -7.83410,
    "longitude": 110.38400
  },
  {
    "name": "Nasi Bakar Wirosaban",
    "description": "Nasi bakar & lauk — porsi cukup besar, cocok mahasiswa",
    "latitude": -7.83430,
    "longitude": 110.38390
  },
  {
    "name": "Warung Bebakaran Bu Yuli",
    "description": "Ayam/le-le bakar & nasi goreng — pilihan prasmanan sederhana dekat kampus",
    "latitude": -7.83460,
    "longitude": 110.38420
  },
  {
    "name": "Sate Klathak Pak Slamet",
    "description": "Sate klathak tradisional dengan bumbu khas, porsi murah mahasiswa",
    "latitude": -7.83330,
    "longitude": 110.38310
  },
  {
    "name": "Warung Soto Pak Danu",
    "description": "Soto hangat dengan kuah gurih, dekat halte kampus",
    "latitude": -7.83390,
    "longitude": 110.38260
  },
  {
    "name": "Nasi Pecel Bu Rini",
    "description": "Pecel sayur segar, lauk sederhana, favorit dosen",
    "latitude": -7.83360,
    "longitude": 110.38240
  },
  {
    "name": "Ayam Geprek Kedai 4",
    "description": "Ayam geprek pedas, nasi porsi besar untuk pelajar",
    "latitude": -7.83385,
    "longitude": 110.38340
  },
  {
    "name": "Kedai Kopi Kampus 4",
    "description": "Kopi dan camilan, tempat diskusi tugas kelompok",
    "latitude": -7.83320,
    "longitude": 110.38300
  },
  {
    "name": "Bakso Joss UAD",
    "description": "Bakso sapi & bakso urat, kuah gurih dan porsi pas",
    "latitude": -7.83440,
    "longitude": 110.38360
  },
  {
    "name": "Pecel Lele Mbak Sari",
    "description": "Lele goreng & sambal terasi, lauk lengkap murah",
    "latitude": -7.83395,
    "longitude": 110.38390
  },
  {
    "name": "Warung Makan Bundo",
    "description": "Masakan rumahan, menu prasmanan sederhana",
    "latitude": -7.83415,
    "longitude": 110.38295
  },
  {
    "name": "Kantin Baru UAD 4",
    "description": "Kantin kampus, pilihan menu cepat dan ekonomis",
    "latitude": -7.83310,
    "longitude": 110.38270
  },
  {
    "name": "Kedai Nasi Goreng Slim",
    "description": "Nasi goreng spesial, porsi besar dan bumbu mantap",
    "latitude": -7.83345,
    "longitude": 110.38325
  },
  {
    "name": "Ramen Rakyat",
    "description": "Ramen murah versi mahasiswa dengan topping sederhana",
    "latitude": -7.83475,
    "longitude": 110.38330
  },
  {
    "name": "Martabak Mini UAD",
    "description": "Martabak manis dan asin ukuran cocok sharing",
    "latitude": -7.83355,
    "longitude": 110.38400
  },
  {
    "name": "Kopi Nangkring",
    "description": "Kopi lokal & minuman signature, tempat nongkrong malam",
    "latitude": -7.83420,
    "longitude": 110.38300
  },
  {
    "name": "Tahu Campur Bu Lina",
    "description": "Tahu campur gurih khas Jawa Tengah, porsi ekonomis",
    "latitude": -7.83405,
    "longitude": 110.38345
  },
  {
    "name": "Kedai Sate Mini",
    "description": "Sate ayam & kambing, bumbu kacang legit",
    "latitude": -7.83325,
    "longitude": 110.38410
  },
  {
    "name": "Geprek Sambal Ijo",
    "description": "Ayam geprek sambal ijo, level kepedasan variatif",
    "latitude": -7.83365,
    "longitude": 110.38370
  },
  {
    "name": "Es Dawet Kampus",
    "description": "Dawet seger untuk pelepas haus di siang hari",
    "latitude": -7.83450,
    "longitude": 110.38310
  },
  {
    "name": "Roti Oven Kampus",
    "description": "Roti panggang & pastry lokal, sarapan ringan",
    "latitude": -7.83340,
    "longitude": 110.38295
  },
  {
    "name": "Warteg Prasmanan UAD",
    "description": "Warteg prasmanan ekonomis dengan berbagai lauk",
    "latitude": -7.83430,
    "longitude": 110.38280
  }
]
